[
    {
        "title": "Центр современного искусства «МАРС»",
        "coords": {
            "lat": 55.768907,
            "lon": 37.626951
        },
        "subway": "Сухаревская, Трубная, Цветной бульвар",
        "categories": [
            "Музеи и галереи",
            "Культура и искусство"
        ]
    },
    {
        "title": "частный кинотеатр «Секрет»",
        "coords": {
            "lat": 55.74824,
            "lon": 37.675613
        },
        "subway": "Площадь Ильича, Римская",
        "categories": [
            "Развлечения",
            "Кинотеатры",
            "Отдых",
            "Места для свиданий"
        ]
    },
    {
        "title": "Музей мёртвых кукол",
        "coords": {
            "lat": 55.75402090000024,
            "lon": 37.59222790000027
        },
        "subway": "Арбатская, Смоленская",
        "categories": [
            "Музеи и галереи",
            "Куклы",
            "Страшилки"
        ]
    },
    {
        "title": "картинг-центр Lonato Karting",
        "coords": {
            "lat": 55.68077700000017,
            "lon": 37.61799090000019
        },
        "subway": "Нагатинская",
        "categories": [
            "Развлечения",
            "Отдых",
            "Картинг",
            "С друзьями",
            "Семейные развлечения"
        ]
    },
    {
        "title": "лофт-пространство Рarty Hard",
        "coords": {
            "lat": 55.77044600000026,
            "lon": 37.6476848999997
        },
        "subway": "Красные Ворота",
        "categories": [
            "Развлечения",
            "Антикафе",
            "С друзьями",
            "Семейные развлечения"
        ]
    },
    {
        "title": "развлекательно-игровой центр SТАНЦИЯ 2025",
        "coords": {
            "lat": 55.73190099999975,
            "lon": 37.68673289999978
        },
        "subway": "Волгоградский проспект",
        "categories": [
            "Развлечения",
            "Детям",
            "Отдых",
            "Виртуальная реальность",
            "Лазертаг",
            "Детские развлекательные центры",
            "С друзьями",
            "Парки аттракционов",
            "Семейные развлечения"
        ]
    },
    {
        "title": "Roof Top — купольные беседки и лофты на крыше для мероприятий и праздников",
        "coords": {
            "lat": 55.83888000000004,
            "lon": 37.6539589999998
        },
        "subway": "ВДНХ",
        "categories": [
            "Развлечения",
            "Места для свиданий"
        ]
    },
    {
        "title": "Музей советских игровых автоматов",
        "coords": {
            "lat": 55.83412620000019,
            "lon": 37.62585640000008
        },
        "subway": "ВДНХ",
        "categories": [
            "Детям",
            "Музеи и галереи",
            "Места для свиданий",
            "Ретро",
            "Семейные развлечения",
            "Игры"
        ]
    },
    {
        "title": "антикафе с кроликами «Зайкафе»",
        "coords": {
            "lat": 55.77973300000013,
            "lon": 37.60394999999985
        },
        "subway": "Новослободская",
        "categories": [
            "Развлечения",
            "Детям",
            "Антикафе",
            "Места для свиданий",
            "Необычные кафе",
            "Животные и птицы",
            "Семейные развлечения"
        ]
    },
    {
        "title": "One Love — свидание на крыше в центре Москвы",
        "coords": {
            "lat": 55.74069129871383,
            "lon": 37.58105117116323
        },
        "subway": "Парк Культуры, Смоленская",
        "categories": [
            "Развлечения",
            "Места для свиданий",
            "Романтичные места и события"
        ]
    },
    {
        "title": "каток на ВДНХ",
        "coords": {
            "lat": 55.824304,
            "lon": 37.619019
        },
        "subway": "ВДНХ",
        "categories": [
            "Развлечения",
            "Отдых",
            "Открытые катки",
            "С друзьями",
            "Активный зимний отдых",
            "Романтичные места и события",
            "Катки",
            "Места для свиданий"
        ]
    },
    {
        "title": "смотровая площадка PANORAMA360 в ММДЦ «Москва-Сити»",
        "coords": {
            "lat": 55.7496930000001,
            "lon": 37.53753900000023
        },
        "subway": "Выставочная, Деловой центр",
        "categories": [
            "Развлечения",
            "Детям",
            "Достопримечательности",
            "Места для свиданий",
            "Романтичные места и события",
            "Семейные развлечения"
        ]
    },
    {
        "title": "cенсорная экспозиция «Прогулка в темноте»",
        "coords": {
            "lat": 55.70502999999994,
            "lon": 37.63905979999976
        },
        "subway": "Автозаводская, Тульская",
        "categories": [
            "Развлечения",
            "Детям",
            "Места для свиданий",
            "Игры",
            "Парки аттракционов",
            "Семейные развлечения"
        ]
    },
    {
        "title": "апартаменты для свиданий Moscow City Romantik",
        "coords": {
            "lat": 55.74713210000023,
            "lon": 37.53914489999988
        },
        "subway": "Деловой центр",
        "categories": [
            "Развлечения",
            "Фотоместа (Фотография)",
            "Фотосессия",
            "Места для свиданий",
            "Романтичные места и события"
        ]
    },
    {
        "title": "бассейн под открытым небом «Чайка»",
        "coords": {
            "lat": 55.73588499999997,
            "lon": 37.59718999999997
        },
        "subway": "Парк Культуры",
        "categories": [
            "Отдых",
            "Плавание",
            "С друзьями",
            "Бассейны",
            "Спорт"
        ]
    },
    {
        "title": "лофт-центр Б69",
        "coords": {
            "lat": 55.77889720000026,
            "lon": 37.69043699999987
        },
        "subway": "Бауманская",
        "categories": [
            "Развлечения",
            "С друзьями",
            "Семейные развлечения"
        ]
    },
    {
        "title": "дрифт-картинг Crazy Cart",
        "coords": {
            "lat": 55.78583150000021,
            "lon": 37.53146979999959
        },
        "subway": "ЦСКА",
        "categories": [
            "Развлечения",
            "С друзьями",
            "Семейные развлечения"
        ]
    },
    {
        "title": "сеть развлекательных центров LaserLand",
        "coords": {
            "lat": 55.64757190000017,
            "lon": 37.59588139999976
        },
        "subway": "Каховская, Севастопольская",
        "categories": [
            "Развлечения",
            "Детям",
            "Отдых",
            "Лазертаг",
            "Детские развлекательные центры",
            "Пейнтбол",
            "Боулинг",
            "Семейные развлечения"
        ]
    },
    {
        "title": "кинотеатр «Формула Кино — Европа»",
        "coords": {
            "lat": 55.81402199999999,
            "lon": 37.571812
        },
        "subway": "Киевская",
        "categories": [
            "Кинотеатры"
        ]
    },
    {
        "title": "Музей фокусов и иллюзий",
        "coords": {
            "lat": 55.73854338316382,
            "lon": 37.66858109109209
        },
        "subway": "Марксистская, Таганская",
        "categories": [
            "Детям",
            "Музеи и галереи",
            "Музеи для детей",
            "Семейные развлечения"
        ]
    },
    {
        "title": "смотровая площадка «Выше Только Любовь»",
        "coords": {
            "lat": 55.74998119999979,
            "lon": 37.53484000000032
        },
        "subway": "Выставочная, Деловой центр, Международная",
        "categories": [
            "Фотоместа (Фотография)",
            "Места для свиданий",
            "Фотосессия",
            "Романтичные места и события"
        ]
    },
    {
        "title": "комплекс водных развлечений «Мореон»",
        "coords": {
            "lat": 55.59724599999998,
            "lon": 37.52718400000001
        },
        "subway": "Ясенево",
        "categories": [
            "Развлечения",
            "Детям",
            "Отдых",
            "Аквапарки",
            "Бассейны",
            "Семейные развлечения",
            "Летние развлечения",
            "Плавание"
        ]
    },
    {
        "title": "Палеонтологический музей",
        "coords": {
            "lat": 55.62369099999994,
            "lon": 37.51428399999999
        },
        "subway": "Коньково, Тёплый Стан",
        "categories": [
            "Музеи и галереи",
            "Наука"
        ]
    },
    {
        "title": "Igloobar — купольные беседки с панорамным видом на крыше",
        "coords": {
            "lat": 55.77668379999999,
            "lon": 37.67474379999964
        },
        "subway": "Бауманская",
        "categories": [
            "Развлечения",
            "Отдых",
            "Места для свиданий",
            "Необычные кафе"
        ]
    },
    {
        "title": "клуб Lazertag Zone",
        "coords": {
            "lat": 55.75616300000001,
            "lon": 37.67737509999978
        },
        "subway": "Курская, Площадь Ильича, Римская",
        "categories": [
            "Развлечения",
            "Детям",
            "Отдых",
            "Лазертаг",
            "С друзьями",
            "Пейнтбол",
            "Семейные развлечения"
        ]
    },
    {
        "title": "игровой центр развлечений ExitGames",
        "coords": {
            "lat": 55.791177,
            "lon": 37.520411
        },
        "subway": "Динамо, Полежаевская, ЦСКА",
        "categories": [
            "Развлечения",
            "Отдых",
            "Лазертаг",
            "Игры",
            "Парки аттракционов",
            "Семейные развлечения"
        ]
    },
    {
        "title": "каток в саду «Эрмитаж»",
        "coords": {
            "lat": 55.77079599999999,
            "lon": 37.60927199999999
        },
        "subway": "Чеховская",
        "categories": [
            "Парки и сады",
            "Достопримечательности",
            "Отдых",
            "Открытые катки",
            "Активный зимний отдых",
            "Катки",
            "Зимние развлечения"
        ]
    },
    {
        "title": "«Москвариум»",
        "coords": {
            "lat": 55.83273199999982,
            "lon": 37.61831599999973
        },
        "subway": "Ботанический сад, ВДНХ",
        "categories": [
            "Развлечения",
            "Детям",
            "Детские развлекательные центры",
            "Семейные развлечения"
        ]
    },
    {
        "title": "Выставочный салон «Московский дом художника»",
        "coords": {
            "lat": 55.762227,
            "lon": 37.62219900000001
        },
        "subway": "Кузнецкий Мост",
        "categories": [
            "Музеи и галереи",
            "Культура и искусство",
            "Современное искусство"
        ]
    },
    {
        "title": "кинотеатр «Синема Парк» в торговом центре «МЕГА Тёплый Стан»",
        "coords": {
            "lat": 55.6054490029885,
            "lon": 37.48957139274096
        },
        "subway": "Тёплый Стан",
        "categories": [
            "Кинотеатры",
            "Игры"
        ]
    },
    {
        "title": "Парки развлечений Joki Joya",
        "coords": {
            "lat": 55.61233601068209,
            "lon": 37.60606933082639
        },
        "subway": "Пражская",
        "categories": [
            "Развлечения",
            "Детям",
            "Отдых",
            "Детские развлекательные центры",
            "Игры",
            "Парки аттракционов",
            "Семейные развлечения"
        ]
    },
    {
        "title": "Ассоциация союзов писателей и издателей (АСПИ)",
        "coords": {
            "lat": 55.75801800000014,
            "lon": 37.58728700000012
        },
        "subway": "Баррикадная",
        "categories": [
            "Арт-центры",
            "Дома культуры",
            "Достопримечательности",
            "Культура и искусство",
            "Книги"
        ]
    },
    {
        "title": "фаертаг в клубе Lazertag Zone",
        "coords": {
            "lat": 55.75616300000001,
            "lon": 37.67737509999978
        },
        "subway": "Курская, Площадь Ильича, Римская",
        "categories": [
            "Развлечения",
            "Отдых",
            "Тиры, стрельба",
            "Игры",
            "С друзьями"
        ]
    },
    {
        "title": "Политехнический музей в технополисе «Москва»",
        "coords": {
            "lat": 55.70790290000016,
            "lon": 37.74906109999982
        },
        "subway": "Текстильщики",
        "categories": [
            "Музеи и галереи",
            "Вднх"
        ]
    },
    {
        "title": "аквапарк «Карибия»",
        "coords": {
            "lat": 55.74779899999992,
            "lon": 37.77849699999999
        },
        "subway": "Перово",
        "categories": [
            "Развлечения",
            "Детям",
            "Отдых",
            "Летние развлечения",
            "Аквапарки",
            "Семейные развлечения"
        ]
    },
    {
        "title": "Музей Международного нумизматического клуба",
        "coords": {
            "lat": 55.749344,
            "lon": 37.597288
        },
        "subway": "Арбатская",
        "categories": [
            "Музеи и галереи",
            "Культура и искусство",
            "История"
        ]
    },
    {
        "title": "Центральный Детский Магазин на Лубянке",
        "coords": {
            "lat": 55.760038,
            "lon": 37.625846
        },
        "subway": "Кузнецкий Мост, Лубянка, Площадь Революции, Театральная",
        "categories": [
            "Семейные развлечения"
        ]
    },
    {
        "title": "кинотеатр «Кронверк Синема» в ТРЦ «Вэйпарк»",
        "coords": {
            "lat": 55.85908899999992,
            "lon": 37.39517599999999
        },
        "subway": "Планерная, Сходненская",
        "categories": [
            "Кинотеатры",
            "Развлечения",
            "Кинопоказы"
        ]
    },
    {
        "title": "Friend’s Hall «Харизма»",
        "coords": {
            "lat": 55.77548300000012,
            "lon": 37.68599110000031
        },
        "subway": "Бауманская, Красносельская",
        "categories": [
            "Развлечения",
            "Кинотеатры",
            "Клубы",
            "С друзьями",
            "Караоке"
        ]
    },
    {
        "title": "кинотеатр «Синема Парк Мега Химки»",
        "coords": {
            "lat": 55.91010656496891,
            "lon": 37.39641367724573
        },
        "subway": "Речной вокзал",
        "categories": [
            "Кинотеатры"
        ]
    },
    {
        "title": "павильон «Космос» на ВДНХ",
        "coords": {
            "lat": 55.83556845629196,
            "lon": 37.62080814270055
        },
        "subway": "ВДНХ",
        "categories": [
            "Музеи и галереи",
            "Достопримечательности",
            "Вднх",
            "Выставочные пространства",
            "Космос",
            "Семейные развлечения"
        ]
    },
    {
        "title": "Онлайн-магазин «Антон тут рядом»",
        "coords": {
            "lat": 59.95275599999999,
            "lon": 30.32788310000025
        },
        "subway": "Горьковская",
        "categories": []
    },
    {
        "title": "кинотеатр «Кронверк Синема» Лефортово",
        "coords": {
            "lat": 55.74674534173447,
            "lon": 37.7061952896879
        },
        "subway": "Авиамоторная, Площадь Ильича, Римская",
        "categories": [
            "Кинотеатры"
        ]
    },
    {
        "title": "Московский художественный академический театр имени Максима Горького (МХАТ)",
        "coords": {
            "lat": 55.76153799999999,
            "lon": 37.60368400000001
        },
        "subway": "Пушкинская",
        "categories": [
            "Театры",
            "Театральные площадки",
            "Булгаков"
        ]
    },
    {
        "title": "Клуб Алексея Козлова",
        "coords": {
            "lat": 55.75772663884803,
            "lon": 37.63375848829166
        },
        "subway": "Китай-город",
        "categories": [
            "Клубы"
        ]
    },
    {
        "title": "Концертный зал «Яровит Холл»",
        "coords": {
            "lat": 55.73568130000011,
            "lon": 37.61279089999969
        },
        "subway": "Октябрьская, Полянка",
        "categories": [
            "Развлечения",
            "Арт-пространства",
            "С друзьями",
            "Театральные площадки",
            "Семейные развлечения"
        ]
    },
    {
        "title": "Музей кино",
        "coords": {
            "lat": 55.83950252112824,
            "lon": 37.61669319110222
        },
        "subway": "Ботанический сад, ВДНХ",
        "categories": [
            "Музеи и галереи",
            "Кинотеатры",
            "Чарли чаплин",
            "Вднх",
            "Кинопоказы"
        ]
    },
    {
        "title": "кинотеатр «Формула Кино» на Мичуринском",
        "coords": {
            "lat": 55.70450899999999,
            "lon": 37.512838
        },
        "subway": "Проспект Вернадского, Юго-Западная",
        "categories": [
            "Кинотеатры"
        ]
    },
    {
        "title": "быстрые свидания FastLife",
        "coords": {
            "lat": 55.75469607361431,
            "lon": 37.62459141479989
        },
        "subway": "Охотный Ряд",
        "categories": [
            "Достопримечательности"
        ]
    },
    {
        "title": "бассейн шаров «Драйвпул»",
        "coords": {
            "lat": 55.751817,
            "lon": 37.592752
        },
        "subway": "Арбатская, Смоленская",
        "categories": [
            "Развлечения",
            "Отдых",
            "Игры",
            "Парки аттракционов"
        ]
    },
    {
        "title": "смотровая площадка с бесплатными биноклями «Только посмотри!»",
        "coords": {
            "lat": 55.71057950000004,
            "lon": 37.57777600000001
        },
        "subway": "Воробьёвы горы, Ломоносовский проспект, Университет",
        "categories": [
            "Семейные развлечения"
        ]
    },
    {
        "title": "Галерея искусств «Нико»",
        "coords": {
            "lat": 55.76859099999984,
            "lon": 37.57568700000032
        },
        "subway": "Краснопресненская, Маяковская, Улица 1905 года",
        "categories": [
            "Арт-центры",
            "Арт-пространства"
        ]
    },
    {
        "title": "судоходная компания «ВодоходЪ»",
        "coords": {
            "lat": 55.77827000000017,
            "lon": 37.57383400000042
        },
        "subway": "Белорусская",
        "categories": [
            "Развлечения",
            "Отдых",
            "С друзьями",
            "Семейные развлечения",
            "Летние развлечения"
        ]
    },
    {
        "title": "кинотеатр «Формула Кино ЦДМ»",
        "coords": {
            "lat": 55.75932880000004,
            "lon": 37.62268430000005
        },
        "subway": "Кузнецкий Мост, Лубянка",
        "categories": [
            "Кинотеатры"
        ]
    },
    {
        "title": "кинотеатр «Формула Кино Ладога»",
        "coords": {
            "lat": 55.88671099999996,
            "lon": 37.65941600000002
        },
        "subway": "Медведково",
        "categories": [
            "Кинотеатры",
            "Бильярд",
            "Игры"
        ]
    },
    {
        "title": "Музей Московского Кремля",
        "coords": {
            "lat": 55.74946917257685,
            "lon": 37.61341171346207
        },
        "subway": "Библиотека имени Ленина, Боровицкая, Кропоткинская, Кузнецкий Мост, Лубянка, Охотный Ряд, Площадь Революции, Пушкинская, Театральная",
        "categories": [
            "Музеи и галереи",
            "Архитектура",
            "Кремль",
            "История",
            "Семейные развлечения"
        ]
    },
    {
        "title": "выставка-ярмарка «Мануфактура №51»",
        "coords": {
            "lat": 55.74767789999995,
            "lon": 37.58703519999992
        },
        "subway": "Смоленская",
        "categories": [
            "Развлечения",
            "Творчество",
            "Выставочные пространства"
        ]
    },
    {
        "title": "кинотеатр «Синема Парк» на Калужской",
        "coords": {
            "lat": 55.65593499999998,
            "lon": 37.54149399999997
        },
        "subway": "Калужская",
        "categories": [
            "Кинотеатры"
        ]
    },
    {
        "title": "кинотеатр «Формула Кино Чертаново»",
        "coords": {
            "lat": 55.63701609999988,
            "lon": 37.60017160000034
        },
        "subway": "Чертановская",
        "categories": [
            "Кинотеатры"
        ]
    },
    {
        "title": "Музей СПАО «Ингосстрах»",
        "coords": {
            "lat": 55.74311399999984,
            "lon": 37.62647299999996
        },
        "subway": "Новокузнецкая",
        "categories": [
            "Музеи и галереи",
            "История",
            "Семейные развлечения"
        ]
    },
    {
        "title": "тир и стрелковый клуб Luger",
        "coords": {
            "lat": 55.60639199999983,
            "lon": 37.72282599999986
        },
        "subway": "Домодедовская",
        "categories": [
            "Развлечения",
            "Отдых",
            "С друзьями",
            "Тиры, стрельба",
            "Спорт"
        ]
    },
    {
        "title": "кинотеатр «Кронверк Синема Облака»",
        "coords": {
            "lat": 55.61203899999997,
            "lon": 37.73276299999999
        },
        "subway": "Домодедовская, Зябликово, Красногвардейская",
        "categories": [
            "Кинотеатры"
        ]
    },
    {
        "title": "Московский драматический театр под руководством Армена Джигарханяна (Малая сцена)",
        "coords": {
            "lat": 55.724013,
            "lon": 37.56741
        },
        "subway": "Спортивная",
        "categories": [
            "Театры"
        ]
    },
    {
        "title": "продюсерское агентство «Интерактивный Бэби-театр»",
        "coords": {
            "lat": 55.73192999999979,
            "lon": 37.63830299999995
        },
        "subway": "Павелецкая",
        "categories": [
            "Детям",
            "Театры",
            "Детские театры",
            "Семейные развлечения"
        ]
    },
    {
        "title": "Театр Живого Действия",
        "coords": {
            "lat": 55.72403700000003,
            "lon": 37.63725189999956
        },
        "subway": "Павелецкая",
        "categories": [
            "Театры",
            "С друзьями"
        ]
    },
    {
        "title": "творческий квартал Vernissage",
        "coords": {
            "lat": 55.79443989235251,
            "lon": 37.7536884918977
        },
        "subway": "Партизанская",
        "categories": [
            "Арт-пространства",
            "Творчество"
        ]
    },
    {
        "title": "банный комплекс в «Мореоне»",
        "coords": {
            "lat": 55.59736752691555,
            "lon": 37.5265290560979
        },
        "subway": "Ясенево",
        "categories": [
            "Отдых",
            "Аквапарки",
            "Бассейны",
            "Плавание"
        ]
    },
    {
        "title": "кинотеатр «Синема Парк» Октябрьское Поле",
        "coords": {
            "lat": 55.79976199999997,
            "lon": 37.48300500000002
        },
        "subway": "Октябрьское поле",
        "categories": [
            "Кинотеатры"
        ]
    },
    {
        "title": "кинотеатр «Кронверк Синема Семёновский»",
        "coords": {
            "lat": 55.78274399999998,
            "lon": 37.72081599999998
        },
        "subway": "Семёновская",
        "categories": [
            "Кинотеатры"
        ]
    },
    {
        "title": "Театр на Юго-Западе",
        "coords": {
            "lat": 55.65537058662361,
            "lon": 37.48104929403088
        },
        "subway": "Юго-Западная",
        "categories": [
            "Театры",
            "Культура и искусство"
        ]
    },
    {
        "title": "музей Like Room",
        "coords": {
            "lat": 55.75811908164874,
            "lon": 37.62441887269213
        },
        "subway": "Лубянка",
        "categories": [
            "Развлечения",
            "Фотоместа (Фотография)",
            "Арт-пространства",
            "Фотосессия",
            "С друзьями",
            "Семейные развлечения"
        ]
    },
    {
        "title": "«Кубикулум» — игра-квест",
        "coords": {
            "lat": 55.80496046507962,
            "lon": 37.58587682831048
        },
        "subway": "Дмитровская",
        "categories": [
            "Развлечения",
            "Отдых",
            "Игры",
            "С друзьями",
            "Места для свиданий"
        ]
    },
    {
        "title": "смотровая площадка РАН",
        "coords": {
            "lat": 55.71020499999995,
            "lon": 37.57795699999998
        },
        "subway": "Ленинский проспект",
        "categories": [
            "Фотоместа (Фотография)",
            "Достопримечательности",
            "Необычные дома",
            "Городские прогулки",
            "Места для свиданий"
        ]
    },
    {
        "title": "центр дизайна Artplay",
        "coords": {
            "lat": 55.75266799999999,
            "lon": 37.66889299999998
        },
        "subway": "Курская, Чкаловская",
        "categories": [
            "Арт-центры",
            "Музеи и галереи"
        ]
    },
    {
        "title": "Музей Булгакова («Нехорошая квартира»)",
        "coords": {
            "lat": 55.76680999999993,
            "lon": 37.59364099999998
        },
        "subway": "Маяковская, Пушкинская, Тверская, Чеховская",
        "categories": [
            "Достопримечательности",
            "Булгаков",
            "Необычные дома",
            "Культура и искусство",
            "Быт",
            "Мастер и маргарита"
        ]
    },
    {
        "title": "Музей Холодной войны «Бункер-42» на Таганке",
        "coords": {
            "lat": 55.74172299999999,
            "lon": 37.64929199999998
        },
        "subway": "Марксистская, Таганская",
        "categories": [
            "Музеи и галереи",
            "Ссср",
            "История"
        ]
    },
    {
        "title": "Аптекарский огород",
        "coords": {
            "lat": 55.77720599999994,
            "lon": 37.636096
        },
        "subway": "Проспект Мира",
        "categories": [
            "Парки и сады",
            "Достопримечательности"
        ]
    },
    {
        "title": "путевой дворец Василия Третьего",
        "coords": {
            "lat": 55.76565112673077,
            "lon": 37.66048143453239
        },
        "subway": "Красные Ворота",
        "categories": [
            "Дворцы",
            "Достопримечательности",
            "Усадьбы",
            "Необычные дома"
        ]
    },
    {
        "title": "Музей занимательных наук «Экспериментаниум»",
        "coords": {
            "lat": 55.80884699999999,
            "lon": 37.51112200000001
        },
        "subway": "Сокол",
        "categories": [
            "Детям",
            "Музеи и галереи",
            "Музеи для детей"
        ]
    },
    {
        "title": "Центр современного искусства «Винзавод»",
        "coords": {
            "lat": 55.75601399999996,
            "lon": 37.66594999999965
        },
        "subway": "Курская, Чкаловская",
        "categories": [
            "Арт-центры",
            "Музеи и галереи",
            "Культура и искусство",
            "Творчество"
        ]
    },
    {
        "title": "Останкинская телебашня",
        "coords": {
            "lat": 55.81972699999998,
            "lon": 37.61171499999998
        },
        "subway": "ВДНХ, Тимирязевская",
        "categories": [
            "Достопримечательности",
            "Живописные места"
        ]
    },
    {
        "title": "ВДНХ",
        "coords": {
            "lat": 55.82626129636804,
            "lon": 37.63759871907796
        },
        "subway": "ВДНХ, Выставочный центр",
        "categories": [
            "Музеи и галереи",
            "Парки и сады",
            "Достопримечательности",
            "Городские прогулки",
            "Зимние развлечения"
        ]
    },
    {
        "title": "«Циферблат» на Кузнецком Мосту",
        "coords": {
            "lat": 55.76214998590785,
            "lon": 37.62544333410139
        },
        "subway": "Кузнецкий Мост",
        "categories": [
            "Антикафе",
            "Необычные кафе"
        ]
    },
    {
        "title": "Музей-заповедник «Царицыно»",
        "coords": {
            "lat": 55.61662499999999,
            "lon": 37.68393099999999
        },
        "subway": "Орехово, Царицыно",
        "categories": [
            "Детям",
            "Музеи и галереи",
            "Парки и сады",
            "Дворцы",
            "Достопримечательности",
            "Архитектура",
            "Городские прогулки",
            "Белки",
            "Развлечения",
            "История",
            "Велосипеды",
            "Зимние развлечения"
        ]
    },
    {
        "title": "Дизайн Завод",
        "coords": {
            "lat": 55.80563009999988,
            "lon": 37.58440699999958
        },
        "subway": "Дмитровская",
        "categories": [
            "Арт-центры",
            "Достопримечательности",
            "Творчество"
        ]
    },
    {
        "title": "Третьяковская галерея",
        "coords": {
            "lat": 55.74115599999996,
            "lon": 37.62021299999999
        },
        "subway": "Третьяковская",
        "categories": [
            "Музеи и галереи",
            "Культура и искусство"
        ]
    },
    {
        "title": "Музей современного искусства «Гараж»",
        "coords": {
            "lat": 55.72786386665095,
            "lon": 37.60165997351134
        },
        "subway": "Октябрьская, Парк Культуры",
        "categories": [
            "Арт-центры",
            "Музеи и галереи",
            "Культура и искусство"
        ]
    },
    {
        "title": "картинг-центр MIKS Karting (ex Forza)",
        "coords": {
            "lat": 55.71969728074387,
            "lon": 37.6834692328184
        },
        "subway": "Дубровка",
        "categories": [
            "Развлечения",
            "Отдых",
            "Картинг",
            "Детские развлекательные центры",
            "С друзьями",
            "Спорт",
            "Семейные развлечения"
        ]
    },
    {
        "title": "картинг-клуб Le Mans",
        "coords": {
            "lat": 55.75812840000024,
            "lon": 37.52713069999989
        },
        "subway": "Шелепиха",
        "categories": [
            "Развлечения",
            "Детям",
            "Отдых",
            "Картинг",
            "Спорт для детей"
        ]
    },
    {
        "title": "Музей Москвы",
        "coords": {
            "lat": 55.73668610000017,
            "lon": 37.59185630000002
        },
        "subway": "Парк Культуры",
        "categories": [
            "Музеи и галереи",
            "Семейные развлечения"
        ]
    },
    {
        "title": "центр творческих индустрий «Фабрика»",
        "coords": {
            "lat": 55.77958499999998,
            "lon": 37.68971599999998
        },
        "subway": "Бауманская, Электрозаводская",
        "categories": [
            "Арт-центры",
            "Музеи и галереи",
            "Культура и искусство",
            "Творчество"
        ]
    },
    {
        "title": "усадьба Кусково",
        "coords": {
            "lat": 55.734922,
            "lon": 37.80895799999998
        },
        "subway": "Выхино, Новогиреево, Рязанский проспект",
        "categories": [
            "Детям",
            "Музеи и галереи",
            "Усадьбы",
            "Парки и сады"
        ]
    },
    {
        "title": "Дарвиновский музей",
        "coords": {
            "lat": 55.69062299999997,
            "lon": 37.56149099999999
        },
        "subway": "Академическая",
        "categories": [
            "Детям",
            "Музеи и галереи",
            "Животные и птицы",
            "Музеи для детей"
        ]
    },
    {
        "title": "Музей изобразительных искусств имени Пушкина (Пушкинский музей)",
        "coords": {
            "lat": 55.74727199999997,
            "lon": 37.60528299999999
        },
        "subway": "Библиотека имени Ленина, Боровицкая, Кропоткинская",
        "categories": [
            "Арт-центры",
            "Музеи и галереи"
        ]
    },
    {
        "title": "Каток в парке Горького",
        "coords": {
            "lat": 55.72949799999995,
            "lon": 37.60619999999998
        },
        "subway": "Октябрьская, Парк Культуры",
        "categories": [
            "Отдых",
            "Открытые катки",
            "Активный зимний отдых",
            "Катки",
            "Зимние развлечения"
        ]
    },
    {
        "title": "клуб «Пропаганда»",
        "coords": {
            "lat": 55.75874199999996,
            "lon": 37.63269099999999
        },
        "subway": "Китай-город",
        "categories": [
            "Клубы",
            "Развлечения"
        ]
    },
    {
        "title": "Галерея «Триумф»",
        "coords": {
            "lat": 55.75457299999997,
            "lon": 37.62436399999999
        },
        "subway": "Площадь Революции",
        "categories": [
            "Музеи и галереи"
        ]
    },
    {
        "title": "фабрика «Красный Октябрь»",
        "coords": {
            "lat": 55.74045712018253,
            "lon": 37.60975241137536
        },
        "subway": "Кропоткинская, Полянка",
        "categories": [
            "Музеи и галереи",
            "Творчество"
        ]
    },
    {
        "title": "Московский зоопарк",
        "coords": {
            "lat": 55.76111699999998,
            "lon": 37.57835199999999
        },
        "subway": "Баррикадная, Краснопресненская",
        "categories": [
            "Развлечения",
            "Детям",
            "Зоопарки",
            "Животные и птицы",
            "Семейные развлечения"
        ]
    },
    {
        "title": "Новая Третьяковка",
        "coords": {
            "lat": 55.73464299999997,
            "lon": 37.605768
        },
        "subway": "Октябрьская, Парк Культуры, Полянка",
        "categories": [
            "Музеи и галереи",
            "Культура и искусство"
        ]
    },
    {
        "title": "Большой театр (Новая сцена)",
        "coords": {
            "lat": 55.75968399999999,
            "lon": 37.61671000000001
        },
        "subway": "Охотный Ряд, Театральная, Чеховская",
        "categories": [
            "Театры"
        ]
    },
    {
        "title": "сад «Эрмитаж»",
        "coords": {
            "lat": 55.77079599999996,
            "lon": 37.60927200000001
        },
        "subway": "Чеховская",
        "categories": [
            "Парки и сады",
            "Достопримечательности",
            "Природа",
            "Развлечения"
        ]
    },
    {
        "title": "Дом Бурганова",
        "coords": {
            "lat": 55.74650699999998,
            "lon": 37.59718100000001
        },
        "subway": "Кропоткинская",
        "categories": [
            "Музеи и галереи",
            "Места для свиданий",
            "Современное искусство"
        ]
    },
    {
        "title": "Римско-католический Кафедральный собор Непорочного Зачатия Пресвятой Девы Марии",
        "coords": {
            "lat": 55.76717499999994,
            "lon": 37.57132699999998
        },
        "subway": "Белорусская, Краснопресненская, Улица 1905 года",
        "categories": [
            "Достопримечательности",
            "Концертные залы",
            "Органная музыка",
            "Культура и искусство",
            "Готика",
            "Семейные развлечения"
        ]
    },
    {
        "title": "сад имени Баумана",
        "coords": {
            "lat": 55.76851199999989,
            "lon": 37.65937100000002
        },
        "subway": "Красные Ворота, Курская",
        "categories": [
            "Парки и сады",
            "Достопримечательности",
            "Зимние развлечения"
        ]
    },
    {
        "title": "Катки в «Сокольниках»",
        "coords": {
            "lat": 55.7947156684338,
            "lon": 37.67650615532689
        },
        "subway": "Сокольники",
        "categories": [
            "Отдых",
            "Открытые катки",
            "Активный зимний отдых",
            "Катки",
            "Зимние развлечения"
        ]
    },
    {
        "title": "Московский музей современного искусства (главное здание на Петровке)",
        "coords": {
            "lat": 55.76696199999997,
            "lon": 37.614276
        },
        "subway": "Чеховская",
        "categories": [
            "Музеи и галереи"
        ]
    },
    {
        "title": "парк искусств «Музеон»",
        "coords": {
            "lat": 55.73559099999997,
            "lon": 37.60662199999999
        },
        "subway": "Парк Культуры",
        "categories": [
            "Арт-центры",
            "Детям",
            "Музеи и галереи",
            "Достопримечательности",
            "Кинотеатры",
            "Набережные",
            "Фонтаны",
            "Памятники",
            "Развлечения",
            "Семейные развлечения",
            "Места для свиданий",
            "Парки и сады"
        ]
    },
    {
        "title": "кинотеатр «Пионер»",
        "coords": {
            "lat": 55.74449999999995,
            "lon": 37.550181
        },
        "subway": "Киевская, Кутузовская",
        "categories": [
            "Кинотеатры",
            "Развлечения",
            "Кинопоказы"
        ]
    },
    {
        "title": "Детский развлекательный центр «Союзмультклуб»",
        "coords": {
            "lat": 55.82105930000007,
            "lon": 37.60157749999959
        },
        "subway": "Бутырская, ВДНХ",
        "categories": [
            "Развлечения",
            "Детям",
            "Отдых",
            "Игры",
            "Парки аттракционов",
            "Музеи для детей",
            "Семейные развлечения"
        ]
    },
    {
        "title": "комиссионный магазин «Добро»",
        "coords": {
            "lat": 55.85693597791912,
            "lon": 37.55770062040937
        },
        "subway": "Верхние Лихоборы",
        "categories": []
    },
    {
        "title": "кинотеатр «Иллюзион»",
        "coords": {
            "lat": 55.74752999999998,
            "lon": 37.64469199999996
        },
        "subway": "Китай-город, Марксистская, Таганская",
        "categories": [
            "Кинотеатры"
        ]
    },
    {
        "title": "картинг-клуб URACE",
        "coords": {
            "lat": 55.68772598845187,
            "lon": 37.60427562017873
        },
        "subway": "Крымская",
        "categories": [
            "Развлечения",
            "Отдых",
            "Картинг",
            "Экстремальный спорт"
        ]
    },
    {
        "title": "Музей-заповедник «Коломенское»",
        "coords": {
            "lat": 55.67201599999996,
            "lon": 37.66516499999998
        },
        "subway": "Коломенская",
        "categories": [
            "Детям",
            "Музеи и галереи",
            "Достопримечательности",
            "Парки и сады"
        ]
    },
    {
        "title": "Исторический музей",
        "coords": {
            "lat": 55.7534523775232,
            "lon": 37.61873189947469
        },
        "subway": "Охотный Ряд",
        "categories": [
            "Музеи и галереи"
        ]
    },
    {
        "title": "Ботанический сад имени Цицина",
        "coords": {
            "lat": 55.84419699999997,
            "lon": 37.58996699999999
        },
        "subway": "Владыкино",
        "categories": [
            "Парки и сады",
            "Достопримечательности",
            "Природа",
            "Городские прогулки"
        ]
    },
    {
        "title": "горнолыжный клуб «Лата-Трэк»",
        "coords": {
            "lat": 55.75006212622658,
            "lon": 37.42690402516205
        },
        "subway": "Крылатское, Молодёжная",
        "categories": [
            "Развлечения",
            "Отдых",
            "Горные лыжи",
            "Катание на лыжах",
            "Катание на ватрушках",
            "Активный зимний отдых",
            "Экстремальный спорт",
            "Сноуборд",
            "Зимние развлечения"
        ]
    },
    {
        "title": "кинотеатр «Синема Парк Филион» на Багратионовской",
        "coords": {
            "lat": 55.74364899999997,
            "lon": 37.50812199999998
        },
        "subway": "Багратионовская, Фили",
        "categories": [
            "Кинотеатры",
            "Кинопоказы"
        ]
    },
    {
        "title": "спортивно-развлекательные парки «НЕБО»",
        "coords": {
            "lat": 55.80886434331272,
            "lon": 37.51105606544073
        },
        "subway": "Сокол",
        "categories": [
            "Отдых",
            "Батут",
            "Детские развлекательные центры",
            "Веревочные парки"
        ]
    },
    {
        "title": "кинотеатр «Времена Года»",
        "coords": {
            "lat": 55.73171299999998,
            "lon": 37.48735299999999
        },
        "subway": "Парк Победы, Филёвский парк",
        "categories": [
            "Кинотеатры"
        ]
    },
    {
        "title": "Музей Востока",
        "coords": {
            "lat": 55.75623899999998,
            "lon": 37.59997399999999
        },
        "subway": "Арбатская",
        "categories": [
            "Музеи и галереи",
            "Семейные развлечения"
        ]
    },
    {
        "title": "кинотеатр «Бульвар»",
        "coords": {
            "lat": 55.785625,
            "lon": 37.67057299999999
        },
        "subway": "Бульвар Дмитрия Донского, Улица Скобелевская",
        "categories": [
            "Кинотеатры",
            "Развлечения",
            "Кинопоказы"
        ]
    },
    {
        "title": "комната снятия стресса Ustroy Destroy",
        "coords": {
            "lat": 55.74676550000007,
            "lon": 37.66248969999999
        },
        "subway": "Марксистская, Площадь Ильича, Чкаловская",
        "categories": [
            "Развлечения",
            "Игры"
        ]
    },
    {
        "title": "Музей космонавтики",
        "coords": {
            "lat": 55.82271599999997,
            "lon": 37.639725
        },
        "subway": "ВДНХ",
        "categories": [
            "Детям",
            "Музеи и галереи",
            "Космос"
        ]
    },
    {
        "title": "Еврейский музей и центр толерантности",
        "coords": {
            "lat": 55.78878299999992,
            "lon": 37.60802299999999
        },
        "subway": "Достоевская, Марьина Роща, Менделеевская",
        "categories": [
            "Музеи и галереи"
        ]
    },
    {
        "title": "клуб «Китайский Лётчик Джао Да»",
        "coords": {
            "lat": 55.754623,
            "lon": 37.63480199999999
        },
        "subway": "Китай-город",
        "categories": [
            "Арт-центры",
            "Клубы",
            "Развлечения"
        ]
    },
    {
        "title": "Сандуновские бани",
        "coords": {
            "lat": 55.76428299999998,
            "lon": 37.621211
        },
        "subway": "Кузнецкий Мост, Трубная",
        "categories": [
            "Отдых"
        ]
    },
    {
        "title": "Парк Горького (ЦПКиО имени Горького)",
        "coords": {
            "lat": 55.72962366151958,
            "lon": 37.60177113595118
        },
        "subway": "Октябрьская, Парк Культуры",
        "categories": [
            "Парки и сады",
            "Достопримечательности",
            "Белки",
            "Пробежки",
            "Велосипеды",
            "Зимние развлечения",
            "Летние развлечения"
        ]
    },
    {
        "title": "антикафе «12 ярдов»",
        "coords": {
            "lat": 55.72968259999979,
            "lon": 37.51182660000001
        },
        "subway": "Парк Победы",
        "categories": [
            "Антикафе",
            "Настольные игры",
            "Развлечения"
        ]
    },
    {
        "title": "Нескучный сад",
        "coords": {
            "lat": 55.71669599999998,
            "lon": 37.59298499999998
        },
        "subway": "Ленинский проспект",
        "categories": [
            "Парки и сады",
            "Достопримечательности",
            "Веревочные парки",
            "Пробежки"
        ]
    },
    {
        "title": "Воробьёвы горы",
        "coords": {
            "lat": 55.70406659999988,
            "lon": 37.52123350000004
        },
        "subway": "Воробьёвы горы",
        "categories": [
            "Парки и сады",
            "Достопримечательности",
            "Пикник",
            "Природа"
        ]
    },
    {
        "title": "ЭТНОМИР",
        "coords": {
            "lat": 55.24458579857868,
            "lon": 36.42542838543249
        },
        "subway": "Молодёжная",
        "categories": [
            "Развлечения",
            "Парки и сады",
            "Достопримечательности"
        ]
    },
    {
        "title": "парк «Тюфелева роща» на ЗИЛе",
        "coords": {
            "lat": 55.6966560002319,
            "lon": 37.64121040040341
        },
        "subway": "Автозаводская, Дубровка",
        "categories": [
            "Парки и сады",
            "Достопримечательности"
        ]
    },
    {
        "title": "выставочный комплекс РЖД",
        "coords": {
            "lat": 55.79341399999999,
            "lon": 37.63252899999999
        },
        "subway": "Рижская",
        "categories": [
            "Детям",
            "Музеи и галереи",
            "Музеи для детей"
        ]
    },
    {
        "title": "парки развлечений «Космик»",
        "coords": {
            "lat": 55.74911640000013,
            "lon": 37.53952899999981
        },
        "subway": "Выставочная",
        "categories": [
            "Отдых",
            "Развлечения",
            "Парки аттракционов",
            "Игры"
        ]
    },
    {
        "title": "места, где снимался  фильм «Операция „Ы“ и другие приключения Шурика»",
        "coords": {
            "lat": 55.74452600000001,
            "lon": 37.580652
        },
        "subway": "Ботанический сад, Киевская, Фрунзенская",
        "categories": [
            "Достопримечательности",
            "Места съемок"
        ]
    },
    {
        "title": "картинг-клуб «Вегас Картинг»",
        "coords": {
            "lat": 55.58570667647474,
            "lon": 37.724937261686
        },
        "subway": "Домодедовская",
        "categories": [
            "Развлечения",
            "Детям",
            "Отдых",
            "Картинг",
            "С друзьями",
            "Семейные развлечения"
        ]
    },
    {
        "title": "Центральный выставочный зал «Манеж»",
        "coords": {
            "lat": 55.75343799999998,
            "lon": 37.61231699999999
        },
        "subway": "Библиотека имени Ленина",
        "categories": [
            "Арт-центры",
            "Музеи и галереи"
        ]
    },
    {
        "title": "Музей Эмоций",
        "coords": {
            "lat": 55.75896399999981,
            "lon": 37.66450489999986
        },
        "subway": "Курская",
        "categories": [
            "Музеи и галереи"
        ]
    },
    {
        "title": "площадь Революции",
        "coords": {
            "lat": 55.756964,
            "lon": 37.619108
        },
        "subway": "Площадь Революции",
        "categories": [
            "Достопримечательности",
            "Площади"
        ]
    },
    {
        "title": "картинг-клуб DIXXодром",
        "coords": {
            "lat": 55.79086799999999,
            "lon": 37.75406199999999
        },
        "subway": "Измайловская, Партизанская, Черкизовская",
        "categories": [
            "Развлечения",
            "Детям",
            "Отдых",
            "Детские развлекательные центры"
        ]
    },
    {
        "title": "кинотеатр «КАРО 11 Октябрь»",
        "coords": {
            "lat": 55.75308299999997,
            "lon": 37.587614
        },
        "subway": "Арбатская",
        "categories": [
            "Кинотеатры"
        ]
    },
    {
        "title": "Российская государственная библиотека для молодёжи",
        "coords": {
            "lat": 55.79575199999994,
            "lon": 37.71762699999999
        },
        "subway": "Преображенская площадь, Семёновская",
        "categories": [
            "Библиотеки",
            "Книги",
            "Настольные игры",
            "Детям"
        ]
    },
    {
        "title": "спортивный курорт «Сорочаны»",
        "coords": {
            "lat": 56.27921317648156,
            "lon": 37.56101039501205
        },
        "subway": "Алтуфьево, Савёловская",
        "categories": [
            "Отдых",
            "Горные лыжи",
            "Катание на лыжах",
            "Катание на ватрушках",
            "Активный зимний отдых",
            "Сноуборд",
            "Спорт",
            "Зимние развлечения"
        ]
    },
    {
        "title": "частный кинотеатр Milano Cinema",
        "coords": {
            "lat": 55.6693965000002,
            "lon": 37.45138569999956
        },
        "subway": "Озёрная",
        "categories": [
            "Кинотеатры"
        ]
    },
    {
        "title": "кинотеатр «Кинозал ГУМа»",
        "coords": {
            "lat": 55.75467399999999,
            "lon": 37.62154299999999
        },
        "subway": "Охотный Ряд, Площадь Революции, Театральная",
        "categories": [
            "Детям",
            "Кинотеатры"
        ]
    },
    {
        "title": "антикафе «Котокафе „Котики и Люди“»",
        "coords": {
            "lat": 55.77659480000025,
            "lon": 37.63018099999993
        },
        "subway": "Проспект Мира, Сухаревская",
        "categories": [
            "Антикафе"
        ]
    },
    {
        "title": "Екатерининский парк",
        "coords": {
            "lat": 55.7839539999999,
            "lon": 37.62125599999985
        },
        "subway": "Достоевская",
        "categories": [
            "Парки и сады",
            "Достопримечательности",
            "Городские прогулки",
            "Прокат лодок и катеров"
        ]
    },
    {
        "title": "парк «Лосиный остров»",
        "coords": {
            "lat": 55.84101242840488,
            "lon": 37.73426055382671
        },
        "subway": "Рижская, Сокольники",
        "categories": [
            "Парки и сады",
            "Достопримечательности",
            "Горки",
            "Конные прогулки",
            "Природа",
            "Городские прогулки"
        ]
    },
    {
        "title": "каток «Южный Полюс» в «Лужниках»",
        "coords": {
            "lat": 55.7191930294001,
            "lon": 37.54366546346555
        },
        "subway": "Воробьёвы горы, Лужники, Спортивная",
        "categories": [
            "Отдых",
            "Открытые катки",
            "Катки"
        ]
    },
    {
        "title": "Парк Коломенское",
        "coords": {
            "lat": 55.67201599999996,
            "lon": 37.66516499999998
        },
        "subway": "Каширская, Коломенская",
        "categories": [
            "Парки и сады",
            "Достопримечательности",
            "Конные прогулки",
            "Пробежки"
        ]
    },
    {
        "title": "Бизнес-квартал «Арма»",
        "coords": {
            "lat": 55.761279,
            "lon": 37.663018
        },
        "subway": "Курская",
        "categories": [
            "Концертные залы",
            "Выставочные пространства"
        ]
    },
    {
        "title": "Кафедральный собор святых апостолов Петра и Павла",
        "coords": {
            "lat": 55.75678510282241,
            "lon": 37.64095186663472
        },
        "subway": "Китай-город",
        "categories": [
            "Достопримечательности",
            "Храмы",
            "Церкви",
            "Архитектура",
            "Органная музыка",
            "Религиозная культура",
            "Культура и искусство"
        ]
    },
    {
        "title": "фантастическое арт-пространство «Музей Восстания Машин»",
        "coords": {
            "lat": 55.74087858751855,
            "lon": 37.60974714595058
        },
        "subway": "Кропоткинская",
        "categories": [
            "Музеи и галереи",
            "Детям"
        ]
    },
    {
        "title": "Воронцовский парк (усадьба Воронцово)",
        "coords": {
            "lat": 55.66774699999998,
            "lon": 37.53437899999995
        },
        "subway": "Новые Черёмушки",
        "categories": [
            "Парки и сады",
            "Достопримечательности",
            "Усадьбы"
        ]
    },
    {
        "title": "парк Фили (Филёвский парк)",
        "coords": {
            "lat": 55.74586729999995,
            "lon": 37.48733870000017
        },
        "subway": "Багратионовская, Пионерская, Филёвский парк",
        "categories": [
            "Детям",
            "Парки и сады",
            "Достопримечательности",
            "Детские площадки",
            "Серебряный век",
            "Белки",
            "Веревочные парки",
            "Велосипеды",
            "Зимние развлечения"
        ]
    },
    {
        "title": "киностудия «Мосфильм»",
        "coords": {
            "lat": 55.72259299999997,
            "lon": 37.53242999999999
        },
        "subway": "Киевская",
        "categories": [
            "Музеи и галереи",
            "Достопримечательности",
            "Кинотеатры"
        ]
    },
    {
        "title": "Галерея искусства стран Европы и Америки XIX–XX веков",
        "coords": {
            "lat": 55.74658799999997,
            "lon": 37.60517599999998
        },
        "subway": "Кропоткинская",
        "categories": [
            "Музеи и галереи"
        ]
    },
    {
        "title": "Парк Покровское-Стрешнево",
        "coords": {
            "lat": 55.81587299999996,
            "lon": 37.48778399999998
        },
        "subway": "Войковская, Щукинская",
        "categories": [
            "Парки и сады",
            "Достопримечательности",
            "Пикник",
            "Природа",
            "Плавание"
        ]
    },
    {
        "title": "Большой театр",
        "coords": {
            "lat": 55.76021099999999,
            "lon": 37.618534
        },
        "subway": "Охотный Ряд, Театральная",
        "categories": [
            "Театры",
            "Театральные площадки"
        ]
    },
    {
        "title": "клуб Base",
        "coords": {
            "lat": null,
            "lon": null
        },
        "subway": "Ленинский проспект, Площадь Гагарина, Шаболовская",
        "categories": [
            "Клубы",
            "Концертные залы"
        ]
    },
    {
        "title": "Музей автомобильных историй",
        "coords": {
            "lat": 55.83228969999978,
            "lon": 37.51882140000007
        },
        "subway": "Войковская",
        "categories": [
            "Детям",
            "Музеи и галереи",
            "Музеи для детей"
        ]
    },
    {
        "title": "антикинотеатр «Кино Хауз»",
        "coords": {
            "lat": 55.76582626360465,
            "lon": 37.63216495513983
        },
        "subway": "Тургеневская, Чистые пруды",
        "categories": [
            "Развлечения",
            "Кинотеатры"
        ]
    },
    {
        "title": "клуб знакомств «Инкогнито»",
        "coords": {
            "lat": 55.722852,
            "lon": 37.62652
        },
        "subway": "Серпуховская",
        "categories": [
            "Клубы"
        ]
    },
    {
        "title": "парк «Кузьминки»",
        "coords": {
            "lat": 55.69614275282545,
            "lon": 37.76761121668409
        },
        "subway": "Кузьминки",
        "categories": [
            "Парки и сады",
            "Достопримечательности",
            "Горки",
            "Парки аттракционов",
            "Природа",
            "Семейные развлечения"
        ]
    },
    {
        "title": "усадьба Быково",
        "coords": {
            "lat": 55.60865913736518,
            "lon": 38.04867798276283
        },
        "subway": "Выхино, Кузьминки",
        "categories": [
            "Дворцы",
            "Достопримечательности",
            "Усадьбы",
            "Церкви",
            "Готика",
            "Загородный отдых"
        ]
    },
    {
        "title": "детский научный центр «ИнноПарк»",
        "coords": {
            "lat": 55.75986392042282,
            "lon": 37.62426857724627
        },
        "subway": "Кузнецкий Мост, Лубянка",
        "categories": [
            "Детям",
            "Музеи и галереи",
            "Игры",
            "Музеи для детей",
            "Наука"
        ]
    },
    {
        "title": "антикафе «Совиный Дом»",
        "coords": {
            "lat": 55.791208,
            "lon": 37.633823
        },
        "subway": "Рижская",
        "categories": [
            "Антикафе",
            "Необычные кафе",
            "Настольные игры",
            "Животные и птицы",
            "Детям"
        ]
    },
    {
        "title": "Спортивный комплекс «КАНТ»",
        "coords": {
            "lat": 55.67497599999996,
            "lon": 37.61301799999999
        },
        "subway": "Нагорная",
        "categories": [
            "Отдых",
            "Горные лыжи",
            "Катание на лыжах",
            "Катание на ватрушках",
            "Горки",
            "Активный зимний отдых",
            "Крытые катки",
            "Сноуборд",
            "Зимние развлечения",
            "Велосипеды",
            "Спорт",
            "Спорт для детей"
        ]
    },
    {
        "title": "кинотеатр «Романов Синема»",
        "coords": {
            "lat": 55.75466399999997,
            "lon": 37.60898399999999
        },
        "subway": "Александровский сад, Арбатская, Охотный Ряд",
        "categories": [
            "Кинотеатры"
        ]
    },
    {
        "title": "Патриаршие пруды",
        "coords": {
            "lat": 55.76237799999996,
            "lon": 37.59530299999999
        },
        "subway": "Маяковская",
        "categories": [
            "Достопримечательности",
            "Городские прогулки",
            "Велосипеды",
            "Парки и сады"
        ]
    },
    {
        "title": "Фотокабинка «Шнельфото»",
        "coords": {
            "lat": 55.75629999999997,
            "lon": 37.66510200000001
        },
        "subway": "Курская",
        "categories": [
            "Фотоместа (Фотография)"
        ]
    },
    {
        "title": "Чистые пруды",
        "coords": {
            "lat": 55.760986,
            "lon": 37.64468399999998
        },
        "subway": "Сретенский бульвар, Тургеневская, Чистые пруды",
        "categories": [
            "Достопримечательности",
            "Городские прогулки",
            "Зимние развлечения",
            "Парки и сады"
        ]
    },
    {
        "title": "кинотеатр «Пять звёзд» на Новокузнецкой",
        "coords": {
            "lat": 55.74446700000007,
            "lon": 37.63013889999958
        },
        "subway": "Новокузнецкая, Третьяковская",
        "categories": [
            "Кинотеатры",
            "Кинопоказы"
        ]
    },
    {
        "title": "Сталинская высотка на Котельнической набережной",
        "coords": {
            "lat": 55.74752999999998,
            "lon": 37.64469199999996
        },
        "subway": "Китай-город",
        "categories": [
            "Достопримечательности",
            "Необычные дома"
        ]
    },
    {
        "title": "центр виртуальной реальности WARPOINT ARENA",
        "coords": {
            "lat": 55.7238595000002,
            "lon": 37.68840559999957
        },
        "subway": "Волгоградский проспект",
        "categories": [
            "Развлечения",
            "Отдых",
            "Виртуальная реальность"
        ]
    },
    {
        "title": "тайм-кафе «Ежеминутка»",
        "coords": {
            "lat": 55.75221829999985,
            "lon": 37.59726059999993
        },
        "subway": "Арбатская",
        "categories": [
            "Детям",
            "Антикафе",
            "Необычные кафе",
            "Животные и птицы"
        ]
    },
    {
        "title": "Измайловский кремль",
        "coords": {
            "lat": 55.79407199999991,
            "lon": 37.75058600000001
        },
        "subway": "Партизанская",
        "categories": [
            "Детям",
            "Достопримечательности",
            "Детские площадки",
            "Необычные дома"
        ]
    },
    {
        "title": "дом-музей Фёдора Конюхова",
        "coords": {
            "lat": 55.73531890000009,
            "lon": 37.64321709999967
        },
        "subway": "Павелецкая",
        "categories": [
            "Музеи и галереи",
            "Достопримечательности",
            "Необычные дома"
        ]
    },
    {
        "title": "Галерея актуального искусства Ruarts",
        "coords": {
            "lat": 55.74094299999999,
            "lon": 37.60060299999998
        },
        "subway": "Кропоткинская",
        "categories": [
            "Музеи и галереи",
            "Творчество",
            "Выставочные пространства"
        ]
    },
    {
        "title": "Галерея Давыдково (Галерея XXI века)",
        "coords": {
            "lat": 55.71800999999999,
            "lon": 37.46133699999999
        },
        "subway": "Славянский бульвар",
        "categories": [
            "Музеи и галереи",
            "Творчество"
        ]
    },
    {
        "title": "Лужков мост",
        "coords": {
            "lat": 55.74435583101484,
            "lon": 37.61862449152828
        },
        "subway": "Третьяковская",
        "categories": [
            "Достопримечательности",
            "Памятники",
            "Мосты"
        ]
    },
    {
        "title": "парк «Сокольники»",
        "coords": {
            "lat": 55.79441759160805,
            "lon": 37.67603985699012
        },
        "subway": "Сокольники",
        "categories": [
            "Детям",
            "Парки и сады",
            "Достопримечательности",
            "Детские площадки",
            "Пикник",
            "Белки",
            "Пробежки",
            "Велосипеды",
            "Зимние развлечения"
        ]
    },
    {
        "title": "Государственный Биологический музей имени Тимирязева",
        "coords": {
            "lat": 55.76439899999991,
            "lon": 37.57149799999998
        },
        "subway": "Баррикадная, Краснопресненская",
        "categories": [
            "Детям",
            "Музеи и галереи"
        ]
    },
    {
        "title": "Каток в саду имени Баумана",
        "coords": {
            "lat": 55.76851199999999,
            "lon": 37.65937099999999
        },
        "subway": "Бауманская, Красные Ворота, Курская",
        "categories": [
            "Отдых",
            "Открытые катки",
            "Активный зимний отдых",
            "Катки",
            "Зимние развлечения"
        ]
    },
    {
        "title": "антикинотеатр «Дубль Три»",
        "coords": {
            "lat": 55.71006040714357,
            "lon": 37.66283778762894
        },
        "subway": "Автозаводская, Дубровка",
        "categories": [
            "Антикафе",
            "Кинотеатры"
        ]
    },
    {
        "title": "Музей анимации",
        "coords": {
            "lat": 55.79440992587936,
            "lon": 37.74963034207106
        },
        "subway": "Партизанская",
        "categories": [
            "Детям",
            "Музеи и галереи",
            "Музеи для детей"
        ]
    },
    {
        "title": "Дом Николая Гоголя",
        "coords": {
            "lat": 55.75414199999994,
            "lon": 37.599822
        },
        "subway": "Арбатская",
        "categories": [
            "Музеи и галереи",
            "Достопримечательности",
            "Необычные дома"
        ]
    },
    {
        "title": "горнолыжный комплекс «Узкое»",
        "coords": {
            "lat": 55.62545283863192,
            "lon": 37.5446097897191
        },
        "subway": "Ясенево",
        "categories": [
            "Отдых",
            "Сноуборд",
            "Горные лыжи",
            "Горки",
            "Активный зимний отдых",
            "Катание на лыжах",
            "Зимние развлечения"
        ]
    },
    {
        "title": "Музей «Московский транспорт»",
        "coords": {
            "lat": 55.74249899999996,
            "lon": 37.67800199999997
        },
        "subway": "Площадь Ильича, Римская",
        "categories": [
            "Музеи и галереи",
            "Ретро"
        ]
    },
    {
        "title": "горнолыжный комплекс «Ново-Переделкино»",
        "coords": {
            "lat": 55.63719738213516,
            "lon": 37.36502059391772
        },
        "subway": "Юго-Западная",
        "categories": [
            "Отдых",
            "Сноуборд",
            "Горные лыжи",
            "Активный зимний отдых",
            "Катание на лыжах",
            "Зимние развлечения"
        ]
    },
    {
        "title": "кинотеатр для двоих на 67-м этаже комплекса «Москва-Сити»",
        "coords": {
            "lat": 55.74713210000023,
            "lon": 37.53914489999988
        },
        "subway": "Деловой центр",
        "categories": [
            "Кинотеатры",
            "Кинопоказы"
        ]
    },
    {
        "title": "батутный центр «Невесомость»",
        "coords": {
            "lat": 55.78945299999989,
            "lon": 37.58551000000023
        },
        "subway": "Бульвар Дмитрия Донского, Красногвардейская, Лесопарковая, Тёплый Стан",
        "categories": [
            "Детям",
            "Отдых",
            "Батут",
            "Семейные развлечения"
        ]
    },
    {
        "title": "кинотеатр «КАРО 7 Атриум»",
        "coords": {
            "lat": 55.75722199999998,
            "lon": 37.65907500000002
        },
        "subway": "Курская, Чкаловская",
        "categories": [
            "Кинотеатры",
            "Развлечения",
            "Кинопоказы"
        ]
    },
    {
        "title": "Чайный дом на Мясницкой",
        "coords": {
            "lat": 55.76385199999996,
            "lon": 37.635736
        },
        "subway": "Тургеневская, Чистые пруды",
        "categories": [
            "Достопримечательности",
            "Необычные дома"
        ]
    },
    {
        "title": "Дом Высоцкого на Таганке",
        "coords": {
            "lat": 55.744602,
            "lon": 37.65160099999998
        },
        "subway": "Таганская",
        "categories": [
            "Музеи и галереи",
            "Высоцкий"
        ]
    },
    {
        "title": "Японский сад",
        "coords": {
            "lat": 55.84459700000001,
            "lon": 37.63781100000001
        },
        "subway": "Владыкино",
        "categories": [
            "Парки и сады",
            "Достопримечательности",
            "Фотосессия",
            "Зимние развлечения"
        ]
    },
    {
        "title": "Каток «Ледовый Бум» в парке Войковского",
        "coords": {
            "lat": 55.820162,
            "lon": 37.50053099999998
        },
        "subway": "Войковская",
        "categories": [
            "Отдых",
            "Катки",
            "Открытые катки",
            "Зимние развлечения"
        ]
    },
    {
        "title": "Московский дворец молодёжи",
        "coords": {
            "lat": 55.72687699999999,
            "lon": 37.57964499999999
        },
        "subway": "Фрунзенская",
        "categories": [
            "Кинотеатры",
            "Театры"
        ]
    },
    {
        "title": "концертный зал Crocus City Hall",
        "coords": {
            "lat": 55.82576800160419,
            "lon": 37.39013973139906
        },
        "subway": "Мякинино, Строгино",
        "categories": [
            "Концертные залы"
        ]
    },
    {
        "title": "Музей Кошки",
        "coords": {
            "lat": 55.74477399999997,
            "lon": 37.41866699999998
        },
        "subway": "Крылатское",
        "categories": [
            "Музеи и галереи",
            "Кошки"
        ]
    },
    {
        "title": "Цирк Никулина на Цветном бульваре",
        "coords": {
            "lat": 55.77057799999999,
            "lon": 37.62001600000001
        },
        "subway": "Цветной бульвар",
        "categories": [
            "Развлечения",
            "Детям"
        ]
    },
    {
        "title": "кинотеатр «Формула Кино» на Можайке",
        "coords": {
            "lat": 55.70660141764641,
            "lon": 37.39054910311808
        },
        "subway": "Молодёжная",
        "categories": [
            "Кинотеатры",
            "Кинопоказы",
            "Развлечения",
            "Игры"
        ]
    },
    {
        "title": "Государственный музей истории ГУЛАГа",
        "coords": {
            "lat": 55.76340699999991,
            "lon": 37.617752
        },
        "subway": "Достоевская, Новослободская, Цветной бульвар",
        "categories": [
            "Музеи и галереи"
        ]
    },
    {
        "title": "боулинг-клуб «Самокат»",
        "coords": {
            "lat": 55.75869599999995,
            "lon": 37.67724699999999
        },
        "subway": "Площадь Ильича",
        "categories": [
            "Развлечения",
            "Отдых",
            "Бильярд",
            "Боулинг",
            "Игры"
        ]
    },
    {
        "title": "парк развлечений «Остров Мечты»",
        "coords": {
            "lat": 55.69281152643614,
            "lon": 37.6754670283996
        },
        "subway": "Технопарк",
        "categories": [
            "Развлечения",
            "Детям",
            "Парки аттракционов"
        ]
    },
    {
        "title": "Станция метро «Выставочный центр»",
        "coords": {
            "lat": 55.82395800000025,
            "lon": 37.63828400000018
        },
        "subway": "Выставочный центр",
        "categories": [
            "Метро"
        ]
    },
    {
        "title": "Галерея-мастерская ГРАУНД Солянка",
        "coords": {
            "lat": 55.753468,
            "lon": 37.638862
        },
        "subway": "Китай-город",
        "categories": [
            "Музеи и галереи",
            "Современное искусство",
            "Культура и искусство"
        ]
    },
    {
        "title": "каток в ТЦ «ГОРОД–Лефортово»",
        "coords": {
            "lat": 55.74742399999997,
            "lon": 37.70707999999998
        },
        "subway": "Авиамоторная, Площадь Ильича",
        "categories": [
            "Развлечения",
            "Отдых",
            "Катки",
            "Крытые катки"
        ]
    },
    {
        "title": "Музей-мастерская Людмилы Гурченко",
        "coords": {
            "lat": 55.76571541824953,
            "lon": 37.595525827218
        },
        "subway": "Маяковская, Пушкинская",
        "categories": [
            "Музеи и галереи"
        ]
    },
    {
        "title": "Парк «Битцевский лес»",
        "coords": {
            "lat": 55.59753599999996,
            "lon": 37.55805899999998
        },
        "subway": "Новоясеневская",
        "categories": [
            "Парки и сады",
            "Достопримечательности",
            "Природа",
            "Пробежки"
        ]
    },
    {
        "title": "могила Вольфа Мессинга на Востряковском кладбище",
        "coords": {
            "lat": 55.65884499999999,
            "lon": 37.44390099999998
        },
        "subway": "Юго-Западная",
        "categories": [
            "Достопримечательности"
        ]
    },
    {
        "title": "Дом сказок «Жили-были»",
        "coords": {
            "lat": 55.79458696994585,
            "lon": 37.75377047076353
        },
        "subway": "Партизанская",
        "categories": [
            "Детям",
            "Развлечения",
            "Музеи для детей"
        ]
    },
    {
        "title": "кинотеатр «КИНО OKKO Афимолл Сити»",
        "coords": {
            "lat": 55.74902999999996,
            "lon": 37.53857499999995
        },
        "subway": "Выставочная, Международная",
        "categories": [
            "Кинотеатры",
            "Семейные развлечения"
        ]
    },
    {
        "title": "каток в парке Северного речного вокзала",
        "coords": {
            "lat": 55.85067599999999,
            "lon": 37.467392
        },
        "subway": "Речной вокзал",
        "categories": [
            "Отдых",
            "Катки"
        ]
    },
    {
        "title": "Центральный дом кино",
        "coords": {
            "lat": 55.77187399999998,
            "lon": 37.58773
        },
        "subway": "Маяковская",
        "categories": [
            "Детям",
            "Кинотеатры",
            "Концертные залы"
        ]
    },
    {
        "title": "Музей воды",
        "coords": {
            "lat": 55.72908199999991,
            "lon": 37.65623599999999
        },
        "subway": "Пролетарская",
        "categories": [
            "Музеи и галереи"
        ]
    },
    {
        "title": "музей «Огни Москвы»",
        "coords": {
            "lat": 55.76082399999995,
            "lon": 37.63500899999997
        },
        "subway": "Китай-город, Лубянка, Тургеневская, Чистые пруды",
        "categories": [
            "Музеи и галереи",
            "Детям"
        ]
    },
    {
        "title": "Московский театр «Современник»",
        "coords": {
            "lat": 55.76182099999997,
            "lon": 37.645968
        },
        "subway": "Тургеневская, Чистые пруды",
        "categories": [
            "Театры",
            "Современная драматургия"
        ]
    },
    {
        "title": "Клуб и антикафе «Зелёная дверь»",
        "coords": {
            "lat": 55.76556399999999,
            "lon": 37.632197
        },
        "subway": "Сретенский бульвар, Тургеневская, Чистые пруды",
        "categories": [
            "Антикафе",
            "Настольный теннис",
            "Настольные игры"
        ]
    },
    {
        "title": "ГУМ-каток на Красной площади",
        "coords": {
            "lat": 55.75467399999999,
            "lon": 37.62154300000001
        },
        "subway": "Охотный Ряд, Площадь Революции, Театральная",
        "categories": [
            "Развлечения",
            "Детям",
            "Отдых",
            "Открытые катки",
            "Активный зимний отдых",
            "Катки",
            "Зимние развлечения"
        ]
    },
    {
        "title": "Крутицкое подворье",
        "coords": {
            "lat": 55.72391099999999,
            "lon": 37.65990099999998
        },
        "subway": "Крестьянская Застава, Пролетарская",
        "categories": [
            "Монастыри",
            "Достопримечательности",
            "Живописные места"
        ]
    },
    {
        "title": "Горнолыжный клуб «Воробьёвы Горы»",
        "coords": {
            "lat": 55.70916846144532,
            "lon": 37.54483307131899
        },
        "subway": "Воробьёвы горы",
        "categories": [
            "Развлечения",
            "Отдых",
            "Сноуборд",
            "Горные лыжи",
            "Катание на ватрушках",
            "Активный зимний отдых",
            "Катание на лыжах",
            "Зимние развлечения"
        ]
    },
    {
        "title": "Московский музей современного искусства в Ермолаевском переулке",
        "coords": {
            "lat": 55.76558399999995,
            "lon": 37.59213199999997
        },
        "subway": "Баррикадная, Маяковская, Тверская",
        "categories": [
            "Музеи и галереи"
        ]
    },
    {
        "title": "антикафе «Жучки-паучки»",
        "coords": {
            "lat": 55.80995900000011,
            "lon": 37.52171900000027
        },
        "subway": "Сокол",
        "categories": [
            "Антикафе",
            "Необычные кафе",
            "Животные и птицы"
        ]
    },
    {
        "title": "аквапарк «Ква-Ква парк»",
        "coords": {
            "lat": 55.89169799999996,
            "lon": 37.74861899999999
        },
        "subway": "ВДНХ",
        "categories": [
            "Детям",
            "Отдых",
            "Аквапарки",
            "Развлечения",
            "Семейные развлечения",
            "Плавание"
        ]
    },
    {
        "title": "Цветной бульвар",
        "coords": {
            "lat": 55.77040100000001,
            "lon": 37.62219900000001
        },
        "subway": "Цветной бульвар",
        "categories": [
            "Достопримечательности",
            "Парки и сады"
        ]
    },
    {
        "title": "бронзовая собака на станции метро «Площадь революции»",
        "coords": {
            "lat": 55.75654000000008,
            "lon": 37.62160700000018
        },
        "subway": "Площадь Революции",
        "categories": [
            "Достопримечательности",
            "Метро",
            "Памятники"
        ]
    },
    {
        "title": "театр-кабаре Crave",
        "coords": {
            "lat": 55.75670600000004,
            "lon": 37.63238879999957
        },
        "subway": "Китай-город",
        "categories": [
            "Театры"
        ]
    },
    {
        "title": "Ростокинский акведук",
        "coords": {
            "lat": 55.82977737057671,
            "lon": 37.65646727928885
        },
        "subway": "ВДНХ",
        "categories": [
            "Достопримечательности",
            "Городские прогулки",
            "Мосты"
        ]
    },
    {
        "title": "культурное пространство ГЭС-2",
        "coords": {
            "lat": 55.74271099999972,
            "lon": 37.61275390000022
        },
        "subway": "Кропоткинская",
        "categories": [
            "Арт-центры",
            "Творчество"
        ]
    },
    {
        "title": "Поклонная гора и Парк Победы",
        "coords": {
            "lat": 55.73166969760691,
            "lon": 37.50788037790062
        },
        "subway": "Парк Победы",
        "categories": [
            "Парки и сады",
            "Достопримечательности",
            "Городские прогулки",
            "Семейные развлечения"
        ]
    },
    {
        "title": "Спасская башня Московского Кремля",
        "coords": {
            "lat": 55.75251130099645,
            "lon": 37.62124259259033
        },
        "subway": "Охотный Ряд, Театральная",
        "categories": [
            "Достопримечательности",
            "Архитектура",
            "Необычные дома",
            "Кремль",
            "История"
        ]
    },
    {
        "title": "Тверской бульвар",
        "coords": {
            "lat": 55.76085899999996,
            "lon": 37.601906
        },
        "subway": "Пушкинская, Тверская, Чеховская",
        "categories": [
            "Достопримечательности",
            "Городские прогулки",
            "Зимние развлечения"
        ]
    },
    {
        "title": "Живописный мост",
        "coords": {
            "lat": 55.77622829999998,
            "lon": 37.44311309999964
        },
        "subway": "Октябрьское поле, Полежаевская",
        "categories": [
            "Достопримечательности",
            "Мосты",
            "Места для свиданий"
        ]
    },
    {
        "title": "антикафе «Свой Ключ»",
        "coords": {
            "lat": 55.753701,
            "lon": 37.63721
        },
        "subway": "Китай-город",
        "categories": [
            "Антикафе",
            "С друзьями",
            "Настольные игры"
        ]
    },
    {
        "title": "Московский музей современного искусства на Гоголевском бульваре",
        "coords": {
            "lat": 55.74700664553094,
            "lon": 37.60031103564671
        },
        "subway": "Кропоткинская",
        "categories": [
            "Музеи и галереи",
            "Современное искусство"
        ]
    },
    {
        "title": "«Театриум на Серпуховке»",
        "coords": {
            "lat": 55.718983,
            "lon": 37.62666299999998
        },
        "subway": "Серпуховская, Тульская",
        "categories": [
            "Детям",
            "Театры",
            "Театральные площадки"
        ]
    },
    {
        "title": "Государственный музей имени Пушкина",
        "coords": {
            "lat": 55.74354199999998,
            "lon": 37.59766599999998
        },
        "subway": "Кропоткинская",
        "categories": [
            "Музеи и галереи",
            "Пушкин",
            "Культура и искусство"
        ]
    },
    {
        "title": "музей-театр «Булгаковский дом»",
        "coords": {
            "lat": 55.76680999999993,
            "lon": 37.59364099999998
        },
        "subway": "Маяковская",
        "categories": [
            "Музеи и галереи",
            "Театры",
            "Булгаков"
        ]
    },
    {
        "title": "кинотеатр «Киноквартал на Варшавке»",
        "coords": {
            "lat": 55.65364399999998,
            "lon": 37.620698
        },
        "subway": "Варшавская",
        "categories": [
            "Кинотеатры",
            "Кинопоказы"
        ]
    },
    {
        "title": "кинотеатр «Москино Спутник»",
        "coords": {
            "lat": 55.764369,
            "lon": 37.70560699999999
        },
        "subway": "Авиамоторная",
        "categories": [
            "Кинотеатры"
        ]
    },
    {
        "title": "Московская центральная церковь евангельских христиан-баптистов",
        "coords": {
            "lat": 55.75463299999999,
            "lon": 37.646013
        },
        "subway": "Китай-город, Чистые пруды",
        "categories": [
            "Достопримечательности",
            "Храмы",
            "Церкви",
            "Органная музыка"
        ]
    },
    {
        "title": "Музей техники Apple",
        "coords": {
            "lat": 55.80604532918952,
            "lon": 37.59075841218232
        },
        "subway": "Дмитровская",
        "categories": [
            "Музеи и галереи",
            "С друзьями",
            "Места для свиданий"
        ]
    },
    {
        "title": "хип-хоп-клуб G",
        "coords": {
            "lat": 55.7614160000002,
            "lon": 37.66308409999984
        },
        "subway": "Курская",
        "categories": [
            "Клубы"
        ]
    },
    {
        "title": "бар «Молодёжь»",
        "coords": {
            "lat": 55.78194799999983,
            "lon": 37.59968499999956
        },
        "subway": "Менделеевская",
        "categories": [
            "Клубы",
            "Караоке"
        ]
    },
    {
        "title": "Фрунзенская набережная",
        "coords": {
            "lat": 55.72390099999995,
            "lon": 37.58821499999998
        },
        "subway": "Парк Культуры, Фрунзенская",
        "categories": [
            "Достопримечательности",
            "Пробежки"
        ]
    },
    {
        "title": "Триумфальная арка",
        "coords": {
            "lat": 55.73672585008924,
            "lon": 37.51977926982193
        },
        "subway": "Парк Победы",
        "categories": [
            "Достопримечательности",
            "Архитектура",
            "Памятники",
            "Городские прогулки"
        ]
    },
    {
        "title": "Серебряный бор",
        "coords": {
            "lat": 55.78405499999997,
            "lon": 37.41333100000002
        },
        "subway": "Полежаевская",
        "categories": [
            "Парки и сады",
            "Достопримечательности",
            "Пикник",
            "Природа",
            "Плавание"
        ]
    },
    {
        "title": "галерея «Роза Азора»",
        "coords": {
            "lat": 55.755282,
            "lon": 37.60076499999999
        },
        "subway": "Арбатская",
        "categories": [
            "Музеи и галереи"
        ]
    },
    {
        "title": "Концертный зал «Известия Hall»",
        "coords": {
            "lat": 55.76607099999998,
            "lon": 37.60537299999999
        },
        "subway": "Пушкинская, Тверская, Чеховская",
        "categories": [
            "Концертные залы"
        ]
    },
    {
        "title": "Государственный центр современного искусства (ГЦСИ)",
        "coords": {
            "lat": 55.764323,
            "lon": 37.58136999999999
        },
        "subway": "Баррикадная, Краснопресненская",
        "categories": [
            "Музеи и галереи",
            "Современное искусство"
        ]
    },
    {
        "title": "Дом на набережной",
        "coords": {
            "lat": 55.74527295366634,
            "lon": 37.61180591590182
        },
        "subway": "Кропоткинская",
        "categories": [
            "Достопримечательности",
            "Конструктивизм",
            "Необычные дома"
        ]
    },
    {
        "title": "Московский академический музыкальный театр имени Станиславского и Немировича­-Данченко",
        "coords": {
            "lat": 55.76456099999996,
            "lon": 37.610512
        },
        "subway": "Пушкинская, Тверская, Чеховская",
        "categories": [
            "Театры",
            "Театральные площадки"
        ]
    },
    {
        "title": "Библиотека имени Некрасова",
        "coords": {
            "lat": 55.76709899999997,
            "lon": 37.67865800000001
        },
        "subway": "Бауманская",
        "categories": [
            "Библиотеки",
            "Книги"
        ]
    },
    {
        "title": "Музей природы и соколиной охоты",
        "coords": {
            "lat": 55.9650560347366,
            "lon": 37.57658957910681
        },
        "subway": "Алтуфьево",
        "categories": [
            "Детям",
            "Музеи и галереи",
            "Животные и птицы",
            "Летние развлечения",
            "Музеи для детей",
            "Семейные развлечения"
        ]
    },
    {
        "title": "Антикафе Local Time",
        "coords": {
            "lat": 55.77331699999998,
            "lon": 37.66959399999999
        },
        "subway": "Бауманская, Комсомольская, Красносельская",
        "categories": [
            "Антикафе",
            "Настольный теннис",
            "С друзьями",
            "Книги",
            "Кинопоказы",
            "Настольные игры"
        ]
    },
    {
        "title": "горнолыжный курорт FreeStyle",
        "coords": {
            "lat": 55.63379999999999,
            "lon": 37.85279599999999
        },
        "subway": "Борисово, Кузьминки, Люблино",
        "categories": [
            "Развлечения",
            "Отдых",
            "Горные лыжи",
            "Катание на лыжах",
            "Катание на ватрушках",
            "Активный зимний отдых",
            "Экстремальный спорт",
            "Сноуборд",
            "Зимние развлечения"
        ]
    },
    {
        "title": "Крылатские холмы",
        "coords": {
            "lat": 55.75760638333085,
            "lon": 37.42332693531804
        },
        "subway": "Крылатское, Молодёжная",
        "categories": [
            "Парки и сады",
            "Достопримечательности",
            "Пикник",
            "Городские прогулки",
            "Горки",
            "Велосипеды"
        ]
    },
    {
        "title": "Дом Великана",
        "coords": {
            "lat": 55.8352762,
            "lon": 37.62304109999996
        },
        "subway": "ВДНХ",
        "categories": [
            "Детям",
            "Музеи и галереи",
            "Семейные развлечения"
        ]
    },
    {
        "title": "арт-квартал Хохловка",
        "coords": {
            "lat": 55.7556807000001,
            "lon": 37.64288289999983
        },
        "subway": "Китай-город",
        "categories": [
            "Арт-пространства",
            "Достопримечательности",
            "Дворы",
            "Современное искусство",
            "Стрит-арт"
        ]
    },
    {
        "title": "кинотеатр «Москва»",
        "coords": {
            "lat": 55.7571603999999,
            "lon": 37.61562930000038
        },
        "subway": "Охотный Ряд, Площадь Революции, Театральная",
        "categories": [
            "Кинотеатры"
        ]
    },
    {
        "title": "Измайловский парк",
        "coords": {
            "lat": 55.76881499999992,
            "lon": 37.75085499999998
        },
        "subway": "Партизанская, Семёновская, Шоссе Энтузиастов",
        "categories": [
            "Детям",
            "Парки и сады",
            "Достопримечательности",
            "Отдых",
            "Пикник",
            "Горки",
            "Белки",
            "Активный зимний отдых",
            "Парки аттракционов",
            "Веревочные парки",
            "Велосипеды",
            "Прокат лодок и катеров"
        ]
    },
    {
        "title": "Северный речной вокзал",
        "coords": {
            "lat": 55.85067599999999,
            "lon": 37.467392
        },
        "subway": "Речной вокзал",
        "categories": [
            "Вокзалы",
            "Ссср"
        ]
    },
    {
        "title": "каток «Локомотив» на Черкизовской",
        "coords": {
            "lat": 55.80614999999996,
            "lon": 37.74233899999999
        },
        "subway": "Черкизовская",
        "categories": [
            "Отдых",
            "Активный зимний отдых",
            "Крытые катки",
            "Катки"
        ]
    },
    {
        "title": "Детский музыкальный театр имени Наталии Сац",
        "coords": {
            "lat": 55.69621,
            "lon": 37.54451199999998
        },
        "subway": "Университет",
        "categories": [
            "Детям",
            "Театры",
            "Детские театры",
            "Театральные площадки"
        ]
    },
    {
        "title": "концертный зал VK Stadium",
        "coords": {
            "lat": 55.808128,
            "lon": 37.51070899999998
        },
        "subway": "Сокол",
        "categories": [
            "Концертные залы"
        ]
    },
    {
        "title": "пространство «Красная стрела»",
        "coords": {
            "lat": 55.78492799999994,
            "lon": 37.65587790000022
        },
        "subway": "Красносельская",
        "categories": [
            "Арт-пространства"
        ]
    },
    {
        "title": "Музей кочевой культуры",
        "coords": {
            "lat": 55.744647,
            "lon": 37.71925299999995
        },
        "subway": "Авиамоторная",
        "categories": [
            "Детям",
            "Музеи и галереи",
            "Музеи для детей"
        ]
    },
    {
        "title": "Театр кукол имени Образцова",
        "coords": {
            "lat": 55.77410999999975,
            "lon": 37.61430900000015
        },
        "subway": "Сухаревская, Трубная, Цветной бульвар",
        "categories": [
            "Детям",
            "Театры",
            "Детские театры",
            "Куклы",
            "Театральные площадки"
        ]
    },
    {
        "title": "Музей истории водки",
        "coords": {
            "lat": 55.79119180355818,
            "lon": 37.75966495434152
        },
        "subway": "Партизанская",
        "categories": [
            "Музеи и галереи",
            "История"
        ]
    },
    {
        "title": "Московский Кремль",
        "coords": {
            "lat": 55.75043769457222,
            "lon": 37.61776368245418
        },
        "subway": "Библиотека имени Ленина",
        "categories": [
            "Музеи и галереи",
            "Достопримечательности",
            "Архитектура"
        ]
    },
    {
        "title": "Московский международный Дом музыки (ММДМ)",
        "coords": {
            "lat": 55.73324899999993,
            "lon": 37.64659699999999
        },
        "subway": "Павелецкая",
        "categories": [
            "Концертные залы"
        ]
    },
    {
        "title": "Музей современной истории России",
        "coords": {
            "lat": 55.76614199999998,
            "lon": 37.60153699999998
        },
        "subway": "Пушкинская, Тверская, Чеховская",
        "categories": [
            "Музеи и галереи"
        ]
    },
    {
        "title": "дом Нади Шевелёвой из фильма «Ирония судьбы»",
        "coords": {
            "lat": 55.659785,
            "lon": 37.48337299999998
        },
        "subway": "Юго-Западная",
        "categories": [
            "Достопримечательности",
            "Необычные дома"
        ]
    },
    {
        "title": "дом Шурика из фильма «Иван Васильевич меняет профессию»",
        "coords": {
            "lat": 55.73813999999999,
            "lon": 37.63097500000001
        },
        "subway": "Новокузнецкая",
        "categories": [
            "Достопримечательности",
            "Конструктивизм",
            "Необычные дома",
            "Места съемок"
        ]
    },
    {
        "title": "Кинотеатр «Москино Салют»",
        "coords": {
            "lat": 55.68281299999997,
            "lon": 37.57129999999999
        },
        "subway": "Академическая",
        "categories": [
            "Детям",
            "Кинотеатры",
            "Детские развлекательные центры",
            "Развлечения"
        ]
    },
    {
        "title": "комната ярости «Ломай меня полностью»",
        "coords": {
            "lat": 55.77720299999987,
            "lon": 37.60196100000036
        },
        "subway": "Новослободская",
        "categories": [
            "Развлечения"
        ]
    },
    {
        "title": "Музей истории шоколада и какао «МИШКа»",
        "coords": {
            "lat": 55.78678899999993,
            "lon": 37.656972
        },
        "subway": "Красносельская",
        "categories": [
            "Детям",
            "Музеи и галереи",
            "Музеи для детей",
            "Семейные развлечения"
        ]
    },
    {
        "title": "ледовый комплекс The Rink",
        "coords": {
            "lat": 55.69255875793202,
            "lon": 37.38659547923222
        },
        "subway": "Славянский бульвар, Тропарёво",
        "categories": [
            "Отдых",
            "Катки",
            "Семейные развлечения",
            "Зимние развлечения"
        ]
    },
    {
        "title": "Дом на курьих ножках",
        "coords": {
            "lat": 55.82652899999999,
            "lon": 37.650343
        },
        "subway": "ВДНХ",
        "categories": [
            "Достопримечательности",
            "Необычные дома",
            "Конструктивизм"
        ]
    },
    {
        "title": "Галерея XL",
        "coords": {
            "lat": 55.756275,
            "lon": 37.66505700000001
        },
        "subway": "Чкаловская",
        "categories": [
            "Музеи и галереи"
        ]
    },
    {
        "title": "дом, где снимался фильм «Москва слезам не верит»",
        "coords": {
            "lat": 55.71803,
            "lon": 37.52119200000001
        },
        "subway": "Киевская, Университет",
        "categories": [
            "Достопримечательности",
            "Необычные дома",
            "Места съемок"
        ]
    },
    {
        "title": "Останкинский парк",
        "coords": {
            "lat": 55.82494099999989,
            "lon": 37.61468899999998
        },
        "subway": "ВДНХ",
        "categories": [
            "Парки и сады",
            "Достопримечательности",
            "Зимние развлечения"
        ]
    },
    {
        "title": "Центральный дом художника",
        "coords": {
            "lat": 55.73426734685671,
            "lon": 37.60458837678727
        },
        "subway": "Октябрьская, Парк Культуры",
        "categories": [
            "Арт-центры",
            "Музеи и галереи"
        ]
    },
    {
        "title": "Театр «Россия»",
        "coords": {
            "lat": 55.76619699999992,
            "lon": 37.60752
        },
        "subway": "Пушкинская, Тверская",
        "categories": [
            "Театры"
        ]
    },
    {
        "title": "«Святой обруч» в Ивановском монастыре",
        "coords": {
            "lat": 55.75463299999999,
            "lon": 37.64059600000001
        },
        "subway": "Китай-город",
        "categories": [
            "Монастыри",
            "Достопримечательности",
            "Иконы"
        ]
    },
    {
        "title": "Музей техники Вадима Задорожного",
        "coords": {
            "lat": 55.79014499999996,
            "lon": 37.30292799999999
        },
        "subway": "Строгино, Тушинская",
        "categories": [
            "Музеи и галереи"
        ]
    },
    {
        "title": "Театр «Уголок дедушки Дурова»",
        "coords": {
            "lat": 55.77930199999996,
            "lon": 37.62110299999997
        },
        "subway": "Достоевская, Проспект Мира",
        "categories": [
            "Развлечения",
            "Детям",
            "Театры",
            "Детские театры",
            "Театральные площадки"
        ]
    },
    {
        "title": "особняк Саввы Морозова",
        "coords": {
            "lat": 55.7612999999999,
            "lon": 37.59117999999997
        },
        "subway": "Баррикадная, Пушкинская, Тверская, Чеховская",
        "categories": [
            "Достопримечательности",
            "Архитектура",
            "Необычные дома",
            "Готика",
            "Мастер и маргарита",
            "Культура и искусство"
        ]
    },
    {
        "title": "Парк 50-летия Октября",
        "coords": {
            "lat": 55.68241199999999,
            "lon": 37.50079099999999
        },
        "subway": "Проспект Вернадского",
        "categories": [
            "Парки и сады",
            "Достопримечательности",
            "Детские площадки"
        ]
    },
    {
        "title": "клуб «Дума»",
        "coords": {
            "lat": 55.756842,
            "lon": 37.61032299999999
        },
        "subway": "Охотный Ряд",
        "categories": [
            "Клубы"
        ]
    },
    {
        "title": "кинотеатр «КАРО 8 Капитолий Вернадского»",
        "coords": {
            "lat": 55.69224199999999,
            "lon": 37.52791999999999
        },
        "subway": "Университет",
        "categories": [
            "Кинотеатры",
            "Развлечения",
            "Кинопоказы"
        ]
    },
    {
        "title": "дом Мельникова в Кривоарбатском переулке",
        "coords": {
            "lat": 55.74805199999998,
            "lon": 37.58950900000001
        },
        "subway": "Арбатская, Смоленская",
        "categories": [
            "Достопримечательности",
            "Конструктивизм",
            "Необычные дома"
        ]
    },
    {
        "title": "караоке «FORTEПЬЯНО»",
        "coords": {
            "lat": 55.76719,
            "lon": 37.607709
        },
        "subway": "Пушкинская, Тверская, Чеховская",
        "categories": [
            "Клубы",
            "С друзьями",
            "Караоке"
        ]
    },
    {
        "title": "центр управления полётами",
        "coords": {
            "lat": 55.91357599999996,
            "lon": 37.80602999999998
        },
        "subway": "ВДНХ, Комсомольская",
        "categories": [
            "Музеи и галереи",
            "Космос"
        ]
    },